{
  "1": {
    "name": "Downtown Pet Hospital",
    "location": [
      40.7128,
      -74.006
    ],
    "address": "123 Main St, New York, NY",
    "phone": "212-555-1000",
    "emergency": true,
    "hours": "24/7"
  },
  "2": {
    "name": "Uptown Animal Clinic",
    "location": [
      40.7831,
      -73.9712
    ],
    "address": "456 Park Ave, New York, NY",
    "phone": "212-555-2000",
    "emergency": false,
    "hours": "8AM-6PM"
  },
  "3": {
    "name": "Brooklyn Veterinary Center",
    "location": [
      40.6782,
      -73.9442
    ],
    "address": "789 Atlantic Ave, Brooklyn, NY",
    "phone": "718-555-3000",
    "emergency": true,
    "hours": "24/7"
  },
  "4": {
    "name": "Queens Pet Care",
    "location": [
      40.7282,
      -73.7949
    ],
    "address": "101 Queens Blvd, Queens, NY",
    "phone": "718-555-4000",
    "emergency": false,
    "hours": "9AM-7PM"
  },
  "5": {
    "name": "Bronx Animal Hospital",
    "location": [
      40.8448,
      -73.8648
    ],
    "address": "202 Grand Concourse, Bronx, NY",
    "phone": "718-555-5000",
    "emergency": true,
    "hours": "24/7"
  }
}